
[
  {
    "code": "BVC",
    "icao": "GVBA",
    "name": "Aristides Pereira International Airport",
    "latitude": 16.083332,
    "longitude": -22.833332,
    "elevation": 111,
    "url": "",
    "time_zone": "Atlantic/Cape_Verde",
    "city_code": "BVC",
    "country": "CV",
    "city": "Vila de Sal Rei",
    "state": "Boa Vista",
    "county": "",
    "type": "AP",
    "country_name": "Cape Verde"
  },
  {
    "code": "MMO",
    "icao": "GVMA",
    "name": "Vila Do Maio",
    "latitude": 15.25,
    "longitude": -23.166668,
    "elevation": 95,
    "url": "",
    "time_zone": "Atlantic/Cape_Verde",
    "city_code": "MMO",
    "country": "CV",
    "city": "Vila do Maio",
    "state": "Maio",
    "county": "",
    "type": "AP",
    "country_name": "Cape Verde"
  },
  {
    "code": "RAI",
    "icao": "GVNP",
    "name": "Nelson Mandela International Airport",
    "latitude": 14.9412846,
    "longitude": -23.48478206133027,
    "elevation": 252,
    "url": "",
    "time_zone": "Atlantic/Cape_Verde",
    "city_code": "RAI",
    "country": "CV",
    "city": "Praia",
    "state": "Praia",
    "county": "",
    "type": "AP",
    "country_name": "Cape Verde"
  },
  {
    "code": "SFL",
    "icao": "GVSF",
    "name": "Sao Filipe",
    "latitude": 14.8857869,
    "longitude": -24.480895853305185,
    "elevation": 538,
    "url": "",
    "time_zone": "Atlantic/Cape_Verde",
    "city_code": "SFL",
    "country": "CV",
    "city": "Sao Filipe",
    "state": "Sao Filipe",
    "county": "",
    "type": "AP",
    "country_name": "Cape Verde"
  },
  {
    "code": "SID",
    "icao": "GVAC",
    "name": "Amilcar Cabral International Airport",
    "latitude": 16.73879835,
    "longitude": -22.951125574679647,
    "elevation": 213,
    "url": "",
    "time_zone": "Atlantic/Cape_Verde",
    "city_code": "SID",
    "country": "CV",
    "city": "Espargos",
    "state": "Sal",
    "county": "",
    "type": "AP",
    "country_name": "Cape Verde"
  },
  {
    "code": "SNE",
    "icao": "GVSN",
    "name": "Preguica",
    "latitude": 16.58982335,
    "longitude": -24.286408063861867,
    "elevation": 597,
    "url": "",
    "time_zone": "Atlantic/Cape_Verde",
    "city_code": "SNE",
    "country": "CV",
    "city": "Vila da Ribeira Brava",
    "state": "Ribeira Brava",
    "county": "",
    "type": "AP",
    "country_name": "Cape Verde"
  },
  {
    "code": "VXE",
    "icao": "GVSV",
    "name": "Cesaria Evora International Airport",
    "latitude": 16.8345053,
    "longitude": -25.055170870134756,
    "elevation": 88,
    "url": "",
    "time_zone": "Atlantic/Cape_Verde",
    "city_code": "VXE",
    "country": "CV",
    "city": "Mindelo",
    "state": "Sao Vicente",
    "county": "",
    "type": "AP",
    "country_name": "Cape Verde"
  }
]